City_ID,City,Lat,Lng,Max Temp,Humidity,Cloudiness,Wind Speed,Country,Date
0,pacific grove,36.6177,-121.9166,286.29,83,100,4.12,US,1703253227
1,isafjordur,66.0755,-23.124,271.17,74,100,7.2,IS,1703253364
2,piripiri,-4.2733,-41.7769,309.02,32,7,4.12,BR,1703253364
3,vernon,50.2581,-119.2691,279.04,89,100,1.54,CA,1703253176
4,taghazout,30.5426,-9.7112,296.58,34,0,4.07,MA,1703253364
5,kuta,-8.7233,115.1723,301.12,78,20,1.03,ID,1703253365
6,ilulissat,69.2167,-51.1,260.16,56,40,8.23,GL,1703253365
7,darwin,-12.4611,130.8418,303.14,81,40,4.12,AU,1703253308
8,zuunmod,47.7069,106.9528,234.72,80,79,1.5,MN,1703253365
9,bilibino,68.0546,166.4372,240.76,100,100,0.37,RU,1703253365
10,east london,-33.0153,27.9116,298.67,73,75,8.75,ZA,1703253366
11,puerto ayora,-0.7393,-90.3518,297.31,82,78,4.32,EC,1703253366
12,ribeira grande,38.5167,-28.7,290.37,67,75,5.81,PT,1703253366
13,saipan,15.1355,145.701,300.54,83,40,7.2,MP,1703253366
14,stanley,54.868,-1.6985,282.48,78,20,10.29,GB,1703253366
15,waitangi,-43.9535,-176.5597,284.16,89,100,2.52,NZ,1703253367
16,velikiy ustyug,60.7644,46.3106,271.7,95,99,0.89,RU,1703253367
17,tiksi,71.6872,128.8694,248.13,93,100,5.72,RU,1703253367
18,iskateley,67.6803,53.1512,256.49,97,89,3.13,RU,1703253367
19,myaydo,19.3667,95.2167,296.26,67,35,0.47,MM,1703253367
20,edinburgh of the seven seas,-37.0676,-12.3116,287.94,70,65,3.43,SH,1703253368
21,ambositra,-20.5167,47.25,294.89,81,81,2.19,MG,1703253368
22,loango,-4.6719,11.8312,302.96,74,40,2.57,CG,1703253368
23,severo-yeniseyskiy,60.3725,93.0408,264.78,91,100,4.07,RU,1703253368
24,yaren,-0.5472,166.916,301.77,76,100,3.7,NR,1703253294
25,prieska,-29.6641,22.7474,312.72,13,100,10.47,ZA,1703253369
26,whitehorse,60.7161,-135.0538,265.58,86,40,2.57,CA,1703253369
27,fort st. john,56.2499,-120.8529,275.09,80,75,5.66,CA,1703253369
28,manvi,15.9833,77.05,297.11,23,99,2.63,IN,1703253370
29,bubaque,11.2833,-15.8333,297.96,33,3,1.65,GW,1703253370
30,sanctuary point,-35.1114,150.629,290.55,85,99,3.15,AU,1703253370
31,dudinka,69.4058,86.1778,265.72,94,100,7.04,RU,1703253370
32,la'ie,21.6477,-157.9253,296.18,79,100,7.95,US,1703253370
33,tazovsky,67.4667,78.7,256.75,97,39,3.31,RU,1703253371
34,peresvet,56.423,38.1761,273.03,92,100,6.46,RU,1703253371
35,codrington,-38.2667,141.9667,283.98,81,0,4.49,AU,1703253209
36,zunyi,27.6867,106.9072,275.5,69,99,1.27,CN,1703253371
37,gardelegen,52.5252,11.3952,277.25,76,100,9.27,DE,1703253372
38,bakhtiyarpur,25.4667,85.5167,293.16,43,100,1.32,IN,1703253372
39,punta arenas,-53.15,-70.9167,285.21,54,75,9.26,CL,1703253372
40,alofi,-19.0595,-169.9187,296.09,94,99,5.14,NU,1703253116
41,hermanus,-34.4187,19.2345,299.15,77,0,5.07,ZA,1703253372
42,nikol'sk,53.7189,46.0712,274.31,98,100,5.59,RU,1703253373
43,ta`u,-14.2336,-169.5144,300.25,82,100,8.15,AS,1703253373
44,badger,64.8,-147.5333,258.14,85,100,0.0,US,1703253194
45,sao felix do xingu,-6.6447,-51.995,302.59,65,100,0.99,BR,1703253373
46,gazojak,41.1875,61.4036,279.34,51,0,5.1,TM,1703253373
47,plaza huincul,-38.926,-69.2086,297.31,15,0,4.19,AR,1703253374
48,nouadhibou,20.931,-17.0347,295.14,33,20,3.6,MR,1703253374
49,new norfolk,-42.7826,147.0587,286.88,81,93,0.48,AU,1703253374
50,albany,42.6001,-73.9662,266.93,79,84,0.89,US,1703253374
51,meadow lake,34.8014,-106.5436,276.46,69,11,0.88,US,1703253374
52,port-aux-francais,-49.35,70.2167,278.07,79,100,12.99,TF,1703253375
53,margaret river,-33.95,115.0667,291.0,76,0,8.09,AU,1703253093
54,port elizabeth,-33.918,25.5701,303.2,85,40,14.4,ZA,1703253375
55,bethel,41.3712,-73.414,269.27,73,0,0.0,US,1703253262
56,alice springs,-23.7,133.8833,298.9,14,0,2.57,AU,1703253375
57,stettler,52.3168,-112.7186,272.01,100,38,5.66,CA,1703253376
58,valparaiso,-33.0393,-71.6273,293.71,64,0,2.57,CL,1703253091
59,hasaki,35.7333,140.8333,276.37,49,20,9.87,JP,1703253376
60,egilsstadir,65.2653,-14.3948,266.1,86,100,6.69,IS,1703253376
61,viedma,-40.8135,-62.9967,299.48,47,0,6.16,AR,1703253376
62,cill airne,52.05,-9.5167,283.18,87,75,5.14,IE,1703253377
63,xai-xai,-25.0519,33.6442,301.36,55,1,4.02,MZ,1703253377
64,college,64.8569,-147.8028,257.14,83,100,0.0,US,1703253377
65,hawaiian paradise park,19.5933,-154.9731,292.54,96,75,0.0,US,1703253377
66,wailua homesteads,22.0669,-159.378,293.59,90,75,6.69,US,1703253378
67,puerto natales,-51.7236,-72.4875,284.4,62,75,11.32,CL,1703253378
68,palu,-0.8917,119.8707,298.25,95,53,0.89,ID,1703253378
69,polyarnyy,69.1989,33.4478,260.84,94,99,4.55,RU,1703253378
70,margate,51.3813,1.3862,285.32,72,100,6.71,GB,1703253151
71,west island,-12.1568,96.8225,297.14,94,40,5.14,CC,1703253379
72,ushuaia,-54.8,-68.3,286.94,47,0,4.12,AR,1703253081
73,madalena,41.2162,-8.3345,289.01,61,7,2.11,PT,1703253379
74,susuman,62.7833,148.1667,230.92,100,96,0.45,RU,1703253234
75,grytviken,-54.2811,-36.5092,274.99,71,24,5.33,GS,1703253380
76,adamstown,-25.066,-130.1015,295.69,89,100,8.08,PN,1703253380
77,kapa'a,22.0752,-159.319,294.33,89,75,6.69,US,1703253323
78,blackmans bay,-43.0167,147.3167,286.22,75,100,1.66,AU,1703253381
79,kuragino,53.8975,92.6725,264.13,94,100,1.95,RU,1703253381
80,saldanha,-33.0117,17.9442,297.18,83,45,7.18,ZA,1703253381
81,lihue,21.9789,-159.3672,293.92,89,75,6.69,US,1703253381
82,al burayqah,30.4062,19.5739,291.31,60,8,11.19,LY,1703253382
83,padangsidempuan,1.3667,99.2667,296.47,98,100,0.94,ID,1703253382
84,georgetown,5.4112,100.3354,303.11,78,20,3.6,MY,1703253382
85,babayevo,59.3936,35.9371,272.48,97,100,5.49,RU,1703253382
86,atafu village,-8.5421,-172.5159,302.53,73,100,7.24,TK,1703253382
87,bousse,12.6606,-1.8922,305.0,9,5,3.42,BF,1703253383
88,kruisfontein,-34.0033,24.7314,301.97,55,0,11.08,ZA,1703253383
89,constantia,44.1833,28.65,281.53,72,100,9.52,RO,1703253383
90,iqaluit,63.7506,-68.5145,259.0,72,75,5.66,CA,1703253384
91,kodiak,57.79,-152.4072,263.88,86,0,3.6,US,1703253384
92,corfu,39.62,19.9197,290.03,67,40,5.14,GR,1703253384
93,tan-tan,28.438,-11.1032,295.12,21,20,8.23,MA,1703253384
94,teruel,40.6667,-0.6667,279.38,79,95,10.35,ES,1703253384
95,ust-nera,64.5667,143.2,233.3,99,93,2.1,RU,1703253385
96,olonkinbyen,70.9221,-8.7187,270.35,76,100,10.63,SJ,1703253385
97,rio grande,-32.035,-52.0986,297.21,82,100,5.0,BR,1703253385
98,sandnessjoen,66.0217,12.6316,273.38,55,75,2.57,NO,1703253386
99,baoro,5.6667,15.9667,308.39,15,75,3.33,CF,1703253386
100,puerto baquerizo moreno,-0.9,-89.6,296.8,86,74,5.09,EC,1703253386
101,el matama,16.7095,33.3565,303.96,16,1,5.08,SD,1703253386
102,alvaraes,-3.2208,-64.8042,300.08,64,93,1.23,BR,1703253387
103,puerto armuelles,8.2833,-82.8667,299.87,72,97,0.45,PA,1703253387
104,hithadhoo,-0.6,73.0833,301.35,78,100,3.34,MV,1703253160
105,hammerfest,70.6634,23.6821,264.4,79,0,0.0,NO,1703253387
106,paciran,-6.8767,112.3761,301.08,73,93,0.93,ID,1703253387
107,longyearbyen,78.2186,15.6401,262.06,62,75,7.2,SJ,1703253388
108,anadyr,64.75,177.4833,246.48,75,0,5.0,RU,1703253388
109,mar del plata,-38.0023,-57.5575,296.77,80,0,5.36,AR,1703253165
110,pailon,-17.65,-62.75,303.97,55,29,3.47,BO,1703253389
111,avarua,-21.2078,-159.775,295.18,88,75,1.03,CK,1703253096
112,port mathurin,-19.6833,63.4167,300.25,77,81,2.79,MU,1703253131
113,saint-pierre,-21.3393,55.4781,303.47,70,40,2.06,RE,1703253373
114,invercargill,-46.4,168.35,284.46,96,100,0.84,NZ,1703253390
115,nabire,-3.3667,135.4833,298.49,90,100,0.98,ID,1703253390
116,yanjiang,30.1211,104.6481,280.42,72,54,0.76,CN,1703253390
117,chipata,-13.6333,32.65,297.64,70,100,1.47,ZM,1703253390
118,goundam,16.4145,-3.6708,300.69,8,6,5.24,ML,1703253390
119,abong mbang,3.9833,13.1833,306.6,25,100,1.42,CM,1703253391
120,sinabang,2.4803,96.3801,300.68,80,100,1.01,ID,1703253149
121,jining,35.405,116.5814,269.71,36,100,3.0,CN,1703253391
122,gao,16.6362,1.637,301.44,14,0,5.71,ML,1703253391
123,malango,-2.9627,119.9001,293.58,97,100,0.59,ID,1703253391
124,cockburn town,21.4612,-71.1419,297.68,65,64,8.93,TC,1703253392
125,san rafael,-34.6177,-68.3301,301.1,37,6,2.79,AR,1703253392
126,acapulco de juarez,16.8634,-99.8901,297.05,74,59,2.06,MX,1703253392
127,gadzhiyevo,69.2551,33.3362,259.78,96,100,4.24,RU,1703253392
128,mejit,10.2753,170.8646,300.46,78,100,9.32,MH,1703253393
129,greymouth,-42.4667,171.2,288.73,97,100,1.25,NZ,1703253393
130,ashburton,-37.8626,145.0794,289.03,67,67,1.79,AU,1703253393
131,mount gambier,-37.8333,140.7667,286.22,68,0,4.38,AU,1703253393
132,shumen,43.2706,26.9229,281.43,68,100,8.92,BG,1703253394
133,ridder,50.355,83.5133,264.99,86,15,2.42,KZ,1703253394
134,bredasdorp,-34.5322,20.0403,300.2,48,0,7.81,ZA,1703253394
135,golub-dobrzyn,53.1109,19.0538,274.58,95,100,12.37,PL,1703253394
136,fortuna,40.5982,-124.1573,282.96,98,100,0.0,US,1703253395
137,yellowknife,62.456,-114.3525,261.44,85,100,3.6,CA,1703253353
138,laojunmiao,39.8333,97.7333,266.02,65,100,2.97,CN,1703253395
139,nishinoomote,30.7333,131.0,281.39,65,100,9.72,JP,1703253395
140,katsuura,35.1333,140.3,279.2,49,2,8.99,JP,1703253396
141,vuyyuru,16.3667,80.85,297.22,69,59,0.0,IN,1703253396
142,saint croix,17.7397,-64.7388,299.4,80,40,2.57,VI,1703253396
143,klyuchi,52.2667,79.1667,272.03,96,95,3.09,RU,1703253396
144,paphos,34.7667,32.4167,292.03,68,40,8.23,CY,1703253397
145,thompson,55.7435,-97.8558,267.24,93,100,4.12,CA,1703252946
146,kincardine,56.0667,-3.7167,283.3,74,97,7.49,GB,1703253397
147,nizhniy kuranakh,58.8353,125.4869,246.41,97,100,1.6,RU,1703253397
148,richmond,37.5538,-77.4603,275.5,82,75,0.0,US,1703253196
149,happy valley-goose bay,53.3168,-60.3315,260.32,61,75,9.77,CA,1703253218
150,hamilton,39.1834,-84.5333,278.0,71,100,2.57,US,1703253206
151,san giovanni in fiore,39.2633,16.6996,287.39,75,28,3.79,IT,1703253398
152,petropavlovsk-kamchatsky,53.0452,158.6483,252.48,54,0,5.0,RU,1703253229
153,lianran,24.9227,102.485,277.45,76,100,1.93,CN,1703253398
154,jamestown,42.097,-79.2353,272.88,88,100,1.54,US,1703253398
155,queenstown,-31.8976,26.8753,303.72,28,89,2.02,ZA,1703253399
156,hudson,40.7168,-74.0663,272.18,57,0,3.6,US,1703253169
157,crane,31.3974,-102.3501,284.24,92,56,3.31,US,1703253266
158,maues,-3.3836,-57.7186,299.73,86,99,1.03,BR,1703253400
159,port alfred,-33.5906,26.891,295.47,84,39,5.36,ZA,1703253400
160,geraldton,-28.7667,114.6,296.38,68,100,4.12,AU,1703253253
161,akureyri,65.6835,-18.0878,264.11,86,100,2.06,IS,1703253400
162,baglung,28.2719,83.5898,286.36,60,100,1.56,NP,1703253400
163,matoury,4.8483,-52.3317,302.13,84,75,5.14,GF,1703253400
164,leo,11.1,-2.1,307.74,8,49,2.64,BF,1703253401
165,san felipe,10.3399,-68.7425,298.67,85,100,2.63,VE,1703253401
166,port lincoln,-34.7333,135.8667,289.56,78,100,6.08,AU,1703253401
167,enewetak,11.3474,162.3373,300.85,79,9,9.0,MH,1703253401
168,sumenep,-7.0167,113.8667,301.16,76,80,2.07,ID,1703253401
169,howrah,22.5892,88.3103,294.15,73,20,1.54,IN,1703253402
170,kavaratti,10.5669,72.642,301.96,70,100,1.66,IN,1703253402
171,nova vicosa,-17.8919,-39.3719,304.71,58,40,4.86,BR,1703253402
172,bonthe,7.5264,-12.505,304.44,40,98,3.92,SL,1703253310
173,sinop,41.7711,34.8709,279.56,88,99,3.85,TR,1703253403
174,goz beida,13.95,20.55,308.61,11,8,4.44,TD,1703253403
175,aasiaat,68.7098,-52.8699,251.52,100,91,3.59,GL,1703253403
176,lincoln,40.8,-96.667,281.31,97,100,2.57,US,1703253403
177,kardla,58.9978,22.7492,274.85,93,75,4.63,EE,1703253404
178,upata,8.0086,-62.3989,301.03,61,100,3.87,VE,1703253404
179,fort bragg,35.139,-79.006,278.61,76,98,1.42,US,1703253378
180,port saint john's,-31.6229,29.5448,299.61,76,6,7.28,ZA,1703253404
181,mil'kovo,55.6078,37.7956,273.48,95,100,6.65,RU,1703253404
182,nagqu,31.5,92.0,251.12,79,0,1.81,CN,1703253404
183,callao,-12.0667,-77.15,296.33,78,0,3.6,PE,1703253117
184,papatowai,-46.5619,169.4708,284.59,97,100,1.64,NZ,1703253405
185,gap,44.6667,6.0,272.54,92,92,5.43,FR,1703253405
186,bulawayo,-20.15,28.5833,303.18,24,7,5.66,ZW,1703253405
187,conil de la frontera,36.2772,-6.0885,290.87,56,0,1.78,ES,1703253405
188,sabirabad,40.0095,48.4752,282.62,46,100,2.87,AZ,1703253406
189,nuku'alofa,-21.1333,-175.2,297.34,88,75,3.09,TO,1703253406
190,lebu,-37.6167,-73.65,288.67,75,60,8.8,CL,1703253125
191,pikalevo,59.5183,34.1664,272.44,94,100,5.36,RU,1703253406
192,nelidovo,56.2211,32.7774,273.4,98,100,5.45,RU,1703253407
193,grand falls-windsor,48.9332,-55.6649,271.76,94,100,6.26,CA,1703253407
194,kabare,-2.4683,28.8242,294.42,87,92,1.06,CD,1703253407
195,nakamura,32.9833,132.9333,271.6,91,42,1.9,JP,1703253407
196,port macquarie,-31.4333,152.9167,290.31,87,100,4.08,AU,1703253407
197,atmore,31.0238,-87.4939,281.98,86,84,1.75,US,1703253407
198,fada,9.5667,8.3,307.04,15,100,2.27,NG,1703253408
199,ndende,-2.4008,11.3581,303.58,63,89,1.06,GA,1703253408
200,smithers,54.7804,-127.1743,277.33,87,40,4.63,CA,1703253408
201,tsetserleg,47.475,101.4542,254.53,94,75,2.51,MN,1703253408
202,qaqortoq,60.7167,-46.0333,257.38,88,17,2.84,GL,1703253408
203,tarko-sale,64.9225,77.785,260.79,97,46,4.42,RU,1703253408
204,afaahiti,-17.75,-149.2833,297.08,87,100,3.0,PF,1703253409
205,kyren,51.6828,102.1408,258.12,79,7,0.45,RU,1703253409
206,keflavik,64.0049,-22.5624,268.39,68,75,2.57,IS,1703253409
207,yelizovo,53.1873,158.3805,253.23,53,0,5.0,RU,1703253409
208,san pedro pochutla,15.7333,-96.4667,294.92,43,31,1.39,MX,1703253320
209,rechka-vydrino,51.485,104.8461,263.2,80,18,2.79,RU,1703253409
210,brisas de zicatela,15.8369,-97.0419,295.37,51,54,2.84,MX,1703253409
211,lae,-6.7221,146.9847,299.58,87,100,1.94,PG,1703253410
212,andreapol',56.6513,32.2664,273.31,98,100,5.3,RU,1703253410
213,kerikeri,-35.2268,173.9474,291.76,97,100,3.72,NZ,1703253324
214,uturoa,-16.7333,-151.4333,299.27,79,100,2.47,PF,1703253410
215,cabo san lucas,22.8909,-109.9124,298.57,58,100,2.57,MX,1703253410
216,lompoc,34.6391,-120.4579,287.56,89,100,3.09,US,1703253410
217,pisco,-13.7,-76.2167,294.18,83,18,1.03,PE,1703253195
218,mahina,-17.5065,-149.489,298.02,88,75,1.54,PF,1703253411
219,tolanaro,-25.0319,46.9987,301.19,69,75,3.09,MG,1703253411
220,nar'yan-mar,67.6713,53.087,256.54,97,86,3.13,RU,1703253411
221,pristen',51.2355,36.6959,274.37,91,100,6.04,RU,1703253411
222,luza,60.6308,47.2512,271.98,95,100,1.54,RU,1703253411
223,gobabis,-22.45,18.9667,306.82,20,100,6.75,,1703253411
224,yuxia,34.0615,108.6291,266.49,36,31,1.38,CN,1703253411
225,eynesil,41.0645,39.1438,286.81,61,100,1.92,TR,1703253412
226,horta,38.5333,-28.6333,289.95,71,75,5.81,PT,1703253412
227,nova sintra,14.8667,-24.7167,293.59,62,12,4.98,CV,1703253412
228,sitia,35.2,26.0986,292.03,62,100,2.59,GR,1703253412
229,zhezqazghan,47.7833,67.7667,267.47,93,20,7.0,KZ,1703253412
230,abalak,58.1286,68.5944,271.12,91,100,4.12,RU,1703253412
231,el quebrachal,-25.2833,-64.0667,296.28,81,100,1.44,AR,1703253412
232,cidreira,-30.1811,-50.2056,301.25,67,5,3.54,BR,1703253413
233,st. john's,47.5649,-52.7093,281.81,97,100,3.09,CA,1703253287
234,ocean city,39.2776,-74.5746,274.25,69,100,3.58,US,1703253413
235,chibougamau,49.9168,-74.3659,258.94,85,100,3.6,CA,1703253413
236,saint-joseph,-21.3667,55.6167,302.86,78,15,2.95,RE,1703253413
237,tvoroyri,61.5556,-6.8111,274.57,54,100,10.95,FO,1703253413
238,araguaina,-7.1911,-48.2072,303.74,59,85,3.12,BR,1703253393
239,luanda,-8.8368,13.2343,301.15,83,75,2.57,AO,1703253414
240,belgrade,44.804,20.4651,281.96,67,20,6.17,RS,1703253401
241,klaksvik,62.2266,-6.589,271.66,65,100,11.15,FO,1703253414
242,bogande,12.9714,-0.1436,304.84,10,0,3.64,BF,1703253414
243,mitha tiwana,32.2486,72.1108,292.62,15,100,1.32,PK,1703253414
244,marennes,45.8228,-1.1055,285.2,80,100,8.0,FR,1703253414
245,tbeng meanchey,13.8167,104.9667,294.01,63,100,1.68,KH,1703253163
246,san patricio,28.017,-97.5169,294.07,84,100,1.92,US,1703253415
247,murghob,38.1702,73.9667,262.87,38,53,2.1,TJ,1703253415
248,ghat,24.9647,10.1728,290.6,27,0,3.66,LY,1703253166
249,gamba,-2.65,10.0,300.85,75,100,3.07,GA,1703253415
250,karaton,-6.3424,106.1045,298.1,71,47,1.9,ID,1703253415
251,quibdo,5.6947,-76.6611,299.34,100,75,0.0,CO,1703253415
252,arzgir,45.3728,44.2206,278.08,87,100,1.66,RU,1703253415
253,denbigh,53.1833,-3.4167,283.74,86,100,4.47,GB,1703253416
254,itaituba,-4.2761,-55.9836,302.24,79,40,2.06,BR,1703253416
255,portland,45.5234,-122.6762,279.7,96,100,2.06,US,1703252921
256,rongelap,11.1635,166.8941,300.54,78,41,10.12,MH,1703253416
257,rakops,-21.0167,24.3333,307.84,14,100,5.09,BW,1703253416
258,ciudad lazaro cardenas,17.9583,-102.2,296.97,83,98,1.85,MX,1703253416
259,cinarli,41.4723,46.9156,280.24,59,97,2.42,AZ,1703253416
260,karratha,-20.7377,116.8463,300.22,67,0,9.33,AU,1703253417
261,parakou,9.3372,2.6303,309.2,13,37,2.96,BJ,1703253417
262,centenario,-38.8043,-68.14,295.01,33,0,5.66,AR,1703253417
263,kogalym,62.2654,74.4791,273.47,99,100,4.58,RU,1703253417
264,kirakira,-10.4544,161.9205,299.91,85,85,0.93,SB,1703253417
265,kabansk,52.0486,106.6528,256.01,95,25,2.38,RU,1703253417
266,dzhambeyty,50.2536,52.595,275.42,75,100,6.03,KZ,1703253418
267,carauari,-4.8828,-66.8958,302.47,62,100,0.94,BR,1703253418
268,castillos,-34.1667,-53.8333,294.19,70,95,3.42,UY,1703253418
269,fale old settlement,-9.3852,-171.2468,301.72,77,100,5.37,TK,1703253418
270,city of balikpapan,-1.242,116.8942,302.12,84,40,0.51,ID,1703253418
271,ujae,8.9322,165.7642,300.5,79,23,9.5,MH,1703253418
272,kilindoni,-7.9139,39.6668,302.17,73,100,4.89,TZ,1703253418
273,pandan,14.0453,124.1694,299.44,84,99,7.06,PH,1703253419
274,hami,42.8,93.45,263.76,66,28,3.7,CN,1703253419
275,kingston,17.997,-76.7936,299.68,80,75,1.03,JM,1703253287
276,coahuayana de hidalgo,18.7,-103.6583,296.37,82,100,1.09,MX,1703253419
277,kitimat,54.0524,-128.6534,276.86,99,100,4.02,CA,1703253419
278,louis trichardt,-23.0439,29.9032,302.02,41,2,4.45,ZA,1703253419
279,shingu,33.7333,135.9833,274.96,60,0,4.0,JP,1703253419
280,chesapeake ranch estates,38.3462,-76.4177,277.13,88,0,0.45,US,1703253420
281,booneville,34.6582,-88.5667,278.28,62,98,1.88,US,1703253343
282,ankang,32.68,109.0172,275.86,48,100,0.31,CN,1703253420
283,nuuk,64.1835,-51.7216,254.94,89,17,3.68,GL,1703253420
284,moyynkum,44.2914,72.9469,271.77,70,0,9.14,KZ,1703253420
285,vadso,70.0744,29.7487,265.24,93,75,5.66,NO,1703253420
286,namestovo,49.4079,19.4803,271.31,100,100,8.28,SK,1703253421
287,utrik,11.2278,169.8474,300.48,77,49,10.02,MH,1703253421
288,jeremie,18.65,-74.1167,298.63,76,82,4.16,HT,1703253421
289,bethanie,-26.4833,17.15,312.97,5,0,9.02,,1703253421
290,soio,-6.1349,12.3689,300.73,76,100,2.29,AO,1703253276
291,sergeyevka,53.88,67.4158,274.46,89,100,4.66,KZ,1703253421
292,udachny,66.4167,112.4,255.62,84,82,2.78,RU,1703253422
293,mora,11.0461,14.1401,305.94,13,77,4.56,CM,1703253422
294,kiruna,67.8557,20.2251,257.66,92,100,1.54,SE,1703253422
295,labrador city,52.9463,-66.9114,244.1,76,20,1.03,CA,1703253423
296,kolonia,50.9333,6.95,283.51,82,75,9.26,DE,1703253275
297,i-n-salah,27.1935,2.4607,293.09,23,0,4.51,DZ,1703253423
298,boca suno,-0.7167,-77.1333,296.92,92,100,0.32,EC,1703253424
299,sao vicente,-23.9631,-46.3919,306.08,60,75,2.68,BR,1703253424
300,lagoa,39.05,-27.9833,288.83,70,54,4.86,PT,1703253424
301,byron bay,-28.65,153.6167,290.77,88,89,4.15,AU,1703253424
302,lazaro cardenas,17.9583,-102.2,296.97,83,98,1.85,MX,1703253425
303,stornoway,58.2093,-6.3865,277.13,89,40,5.14,GB,1703253425
304,huangmei,30.1924,116.025,271.04,47,99,2.27,CN,1703253425
305,alaghsas,17.0187,8.0168,300.09,13,0,5.66,NE,1703253236
306,nyurba,63.2842,118.3319,250.35,97,76,2.87,RU,1703253425
307,guerrero negro,27.9769,-114.0611,290.24,89,13,1.42,MX,1703253426
308,barrouallie,13.2333,-61.2667,297.94,89,75,5.66,VC,1703253426
309,ulladulla,-35.35,150.4667,290.05,86,100,3.49,AU,1703253426
310,coquimbo,-29.9533,-71.3436,289.0,82,100,2.57,CL,1703253426
311,mount isa,-20.7333,139.5,303.02,12,0,3.6,AU,1703253427
312,bosobolo,4.1833,19.9,310.44,17,57,2.34,CD,1703253427
313,puerto leguizamo,-0.1934,-74.7819,301.18,73,99,0.51,CO,1703253427
314,farafangana,-22.8167,47.8333,301.71,74,81,5.08,MG,1703253427
315,puerto santa,-8.9906,-78.6456,293.74,86,100,2.87,PE,1703253428
316,vol'sk,52.0333,47.3833,275.21,94,100,3.53,RU,1703253428
317,lusambo,-4.9667,23.45,304.12,53,100,2.11,CD,1703253428
318,sitka,57.0531,-135.33,275.09,87,100,2.57,US,1703253428
319,luderitz,-26.6481,15.1594,295.12,61,0,11.48,,1703253429
320,pahrump,36.2083,-115.9839,285.55,72,100,0.45,US,1703253214
321,bandon,51.7469,-8.7425,282.92,72,100,7.26,IE,1703253429
322,tulun,54.5611,100.5792,255.73,92,100,2.19,RU,1703253429
323,aral,40.5156,81.2636,270.19,43,0,2.31,CN,1703253430
324,jiangzi,28.95,89.6333,271.66,15,91,0.7,CN,1703253430
325,jobabo,20.9692,-76.2994,296.56,72,87,6.16,CU,1703253430
326,progreso,21.2833,-89.6667,294.88,78,91,3.51,MX,1703253293
327,salekhard,66.53,66.6019,254.6,98,100,2.01,RU,1703253431
328,santyoku,37.4406,129.1708,266.5,53,0,4.58,KR,1703253431
329,neyriz,29.1988,54.3278,284.02,38,100,2.26,IR,1703253431
330,talara,-4.5772,-81.2719,296.57,73,100,7.72,PE,1703253431
331,walvis bay,-22.9575,14.5053,292.09,62,26,10.12,,1703253223
332,porto novo,6.4965,2.6036,307.05,26,94,4.09,BJ,1703253432
333,daru,-9.0763,143.2092,299.3,87,99,2.42,PG,1703253432
334,nazarabad,35.9521,50.6075,283.6,41,78,2.22,IR,1703253432
335,rosarito,32.3333,-117.0333,288.68,80,22,3.58,MX,1703253433
336,la ligua,-32.4524,-71.2311,295.67,52,28,2.94,CL,1703253433
337,palmer,42.1584,-72.3287,268.99,60,0,2.57,US,1703253433
338,dolores,-36.3132,-57.6792,296.97,57,68,1.75,AR,1703253433
339,babana,10.4295,3.815,308.87,13,14,3.1,NG,1703253434
340,taoudenni,22.6783,-3.9836,296.63,18,34,6.76,ML,1703253434
341,kununurra,-15.7667,128.7333,302.14,61,76,1.54,AU,1703253434
342,eckernforde,54.4667,9.8333,278.2,74,83,9.15,DE,1703253434
343,tsiombe,-25.3,45.4833,301.07,61,55,6.95,MG,1703253435
344,touros,-5.1989,-35.4608,302.85,61,74,7.58,BR,1703253435
345,letterkenny,54.95,-7.7333,284.11,85,100,9.39,IE,1703253435
346,sosnovoborsk,56.1325,93.3589,270.72,78,100,6.13,RU,1703253435
347,carutapera,-1.195,-46.02,302.27,72,99,5.12,BR,1703253436
348,sao joao da barra,-21.6403,-41.0511,306.2,64,51,4.84,BR,1703253436
349,la passe,45.5549,-0.8967,285.28,80,100,7.24,FR,1703253436
350,carnarvon,-24.8667,113.6333,295.92,76,7,5.28,AU,1703253436
351,ocean shores,46.9737,-124.1563,280.38,94,100,4.02,US,1703253437
352,las palmas,28.4204,-14.0131,289.59,68,40,3.6,ES,1703253437
353,maroantsetra,-15.4333,49.7333,302.48,78,98,3.86,MG,1703253437
354,tromso,69.6496,18.957,265.16,79,0,1.03,NO,1703253437
355,charters towers,-20.1,146.2667,298.52,83,41,4.25,AU,1703253437
356,holualoa,19.6228,-155.9522,294.06,95,40,1.54,US,1703253200
357,cambria,35.5641,-121.0808,287.07,88,91,0.89,US,1703253438
358,qui nhon,13.7667,109.2333,294.98,90,100,13.17,VN,1703253438
359,motueka,-41.1333,173.0167,290.98,86,100,0.68,NZ,1703253438
360,porto velho,-8.7619,-63.9039,301.18,94,75,2.57,BR,1703253438
361,san mariano,7.5,126.0,295.04,95,3,1.24,PH,1703253439
362,bemidji,47.4736,-94.8803,274.76,100,100,2.57,US,1703253439
363,salinopolis,-0.6136,-47.3561,302.05,77,74,6.45,BR,1703253439
364,namibe,-15.1961,12.1522,298.67,77,100,4.28,AO,1703253439
365,basoko,1.2391,23.616,305.75,47,79,0.83,CD,1703253439
366,kahriz,34.3838,47.0553,283.19,50,75,4.12,IR,1703253440
367,luganville,-15.5333,167.1667,299.33,83,10,0.97,VU,1703253440
368,tocopilla,-22.092,-70.1979,295.27,70,20,4.26,CL,1703253440
369,brookings,44.3114,-96.7984,277.14,98,100,1.54,US,1703253357
370,talcahuano,-36.7167,-73.1167,289.97,67,0,3.6,CL,1703253441
371,amga,60.8953,131.9608,244.74,99,100,0.46,RU,1703253441
372,ashbourne,53.5108,-6.4272,283.65,82,75,13.38,IE,1703253441
373,inari,68.906,27.0288,255.26,99,100,1.76,FI,1703253442
374,panjab,34.388,67.0233,270.9,70,6,2.28,AF,1703253442
375,pritzwalk,53.1494,12.1741,277.61,68,54,10.31,DE,1703253442
376,ketchikan,55.3422,-131.6461,279.14,75,75,5.14,US,1703253331
377,nova xavantina,-14.6667,-52.35,296.6,96,100,0.56,BR,1703253443
378,mikhaylovskoye,51.8239,79.7172,270.82,91,100,3.96,RU,1703253443
379,haiku-pauwela,20.9219,-156.3051,296.51,77,20,6.17,US,1703253443
380,koulikoro,14.0,-7.75,302.4,9,1,3.47,ML,1703253443
381,yuzhno-kurilsk,44.0306,145.8556,269.15,65,16,3.04,RU,1703253444
382,lingig,8.0389,126.4125,299.05,85,64,1.4,PH,1703253444
383,boysun,38.2061,67.1986,281.5,28,0,1.63,UZ,1703253444
384,khost,33.3395,69.9204,287.57,17,100,1.49,AF,1703253444
385,axum,14.1245,38.7244,297.73,21,1,3.06,ET,1703253444
386,datong,40.0936,113.2914,258.5,78,100,0.71,CN,1703253210
387,balikpapan,-1.2675,116.8289,301.7,84,40,0.51,ID,1703253445
388,riasi,33.0833,74.8333,288.26,28,100,2.13,IN,1703253445
389,berezovyy,51.6667,135.7,245.81,97,10,0.9,RU,1703253314
390,nadi,-17.8,177.4167,298.15,78,20,2.57,FJ,1703253248
391,dryden,49.7833,-92.7503,273.31,93,100,2.57,CA,1703253446
392,ancud,-41.8697,-73.8203,287.97,73,82,2.48,CL,1703253446
393,uliastay,47.7417,96.8444,248.75,92,16,2.43,MN,1703253446
394,mana,5.6592,-53.7767,300.47,86,59,4.26,GF,1703253447
395,colonia,50.9333,6.95,283.62,82,75,9.26,DE,1703253347
396,melfort,52.8667,-104.6177,267.22,86,68,4.63,CA,1703253430
397,badagry,6.4167,2.8833,304.91,38,96,4.43,NG,1703253447
398,lorengau,-2.0226,147.2712,300.98,80,99,2.41,PG,1703253448
399,lensk,60.7253,114.9278,258.01,91,100,3.88,RU,1703253448
400,bernardo de irigoyen,-26.2552,-53.6458,302.19,51,0,1.55,AR,1703253448
401,okha,53.5739,142.9478,248.81,97,94,6.44,RU,1703253448
402,masina,-4.3836,15.3914,305.34,58,40,4.12,CD,1703253448
403,xinqing,48.2333,129.5,251.9,97,100,2.02,CN,1703253449
404,patong,7.8961,98.2966,300.23,78,90,8.26,TH,1703253449
405,kapuskasing,49.4169,-82.4331,268.2,86,100,4.12,CA,1703253208
406,micheweni,-4.9667,39.8333,302.5,71,78,4.22,TZ,1703253449
407,flying fish cove,-10.4217,105.6791,296.97,88,78,0.0,CX,1703253450
408,ushtobe,45.2514,77.9838,268.17,81,5,5.2,KZ,1703253450
409,ribeira brava,32.65,-17.0667,292.66,57,56,1.61,PT,1703253450
410,bodo,67.28,14.405,270.17,68,0,8.23,NO,1703253450
411,guangming,45.3333,122.7833,257.71,71,0,2.94,CN,1703253450
412,ribnita,47.7664,29.0011,277.35,87,100,3.95,MD,1703253451
413,kyparissia,37.2511,21.6736,290.78,74,23,5.36,GR,1703253451
414,elliot lake,46.3834,-82.6331,268.66,79,100,2.18,CA,1703253451
415,tucuma,-0.1833,-50.05,303.96,63,51,5.05,BR,1703253451
416,dhidhdhoo,6.8833,73.1,301.4,74,100,2.59,MV,1703253154
417,medicine hat,50.0501,-110.6683,279.66,67,20,5.14,CA,1703253241
418,dubti,11.7361,41.0853,306.69,27,6,6.45,ET,1703253452
419,morehead city,34.7229,-76.726,283.15,92,0,1.54,US,1703253453
420,faya-largeau,17.9257,19.1043,299.09,16,0,8.23,TD,1703253453
421,sechura,-5.5569,-80.8222,295.99,72,100,4.9,PE,1703253331
422,aykhal,66.0,111.5,248.95,100,100,3.8,RU,1703253453
423,konarka,19.9,86.1167,293.37,62,99,2.65,IN,1703253454
424,posse,-14.0931,-46.3694,299.88,60,100,2.72,BR,1703253455
425,south hedland,-20.4089,118.5983,301.11,69,0,6.69,AU,1703253455
426,ocho rios,18.4025,-77.1048,297.48,79,74,7.81,JM,1703253455
427,vilyuchinsk,52.9306,158.4028,253.3,70,27,3.52,RU,1703253455
428,san luis de la loma,17.2706,-100.8939,296.97,72,100,1.91,MX,1703253456
429,corner brook,48.9667,-57.9484,270.24,90,100,8.74,CA,1703253412
430,agara,42.0376,43.8238,279.28,55,92,0.44,GE,1703253456
431,qamdo,31.1667,97.2333,263.86,24,0,1.82,CN,1703253456
432,gazli,40.1333,63.45,281.94,41,0,6.02,UZ,1703253457
433,amos,48.5669,-78.1162,263.46,77,83,2.79,CA,1703253457
434,shevchenko,48.5,35.0,278.51,83,100,5.16,UA,1703253457
435,placido de castro,-10.3353,-67.1856,302.33,69,100,1.48,BR,1703253458
436,borba,-4.3878,-59.5939,298.25,96,99,1.64,BR,1703253458
437,basoda,23.85,77.9333,290.54,30,100,2.1,IN,1703253458
438,remire-montjoly,4.9167,-52.2667,302.17,84,75,5.14,GF,1703253458
439,belmonte,-15.8631,-38.8828,300.42,83,81,3.97,BR,1703253458
440,oltinko'l,40.8011,72.1634,279.35,38,1,2.01,UZ,1703253459
441,fairhope,30.523,-87.9033,284.09,64,0,2.57,US,1703253459
442,roma,43.2128,-75.4557,267.52,79,0,3.09,US,1703253387
443,kirensk,57.7853,108.1119,259.06,96,100,3.04,RU,1703253459
444,san rafael del sur,11.8485,-86.4384,295.69,58,27,3.9,NI,1703253460
445,altai,46.3722,96.2583,252.56,79,1,1.85,MN,1703253460
446,sarakhs,36.5449,61.1577,289.09,23,0,8.62,IR,1703253460
447,toktogul,41.8708,72.9402,274.07,44,0,0.83,KG,1703253461
448,malanje,-9.5402,16.341,294.85,92,100,1.58,AO,1703253461
449,launceston,-41.45,147.1667,286.93,76,100,4.63,AU,1703253461
450,kambove,-10.8764,26.5969,294.69,75,86,1.9,CD,1703253462
451,puerto ayacucho,5.6639,-67.6236,303.07,65,86,0.67,VE,1703253462
452,mersa matruh,31.3525,27.2453,293.26,45,40,11.32,EG,1703253462
453,jeddah,21.5169,39.2192,304.07,51,40,5.66,SA,1703253356
454,bardai,11.65,7.2333,303.76,14,5,5.72,NG,1703253462
455,rutana,-3.8667,30.1,292.64,80,100,1.16,BI,1703253463
456,chonchi,-42.6128,-73.8092,287.71,75,99,1.57,CL,1703253463
457,jianshui,23.6363,102.8264,282.59,76,99,1.42,CN,1703253463
458,namanyere,-7.5167,31.05,295.94,70,100,0.61,TZ,1703253463
459,tangub,8.06,123.75,297.62,91,7,0.87,PH,1703253464
460,gorontalo,0.5412,123.0595,297.68,94,100,1.52,ID,1703253464
461,ramapuram,13.1167,79.2,294.95,76,100,2.3,IN,1703253464
462,parun,35.4207,70.9221,274.72,57,100,1.44,AF,1703253464
463,faaa,-17.55,-149.6,298.13,88,75,1.54,PF,1703253271
464,bordj ghdir,35.9011,4.8981,285.66,37,41,2.28,DZ,1703253465
465,inhambane,-23.865,35.3833,304.14,70,40,5.14,MZ,1703253465
466,greenville,35.6127,-77.3663,277.67,94,0,0.0,US,1703253313
467,erenhot,43.6475,111.9767,253.81,90,14,1.78,CN,1703253465
468,an nuhud,12.7,28.4333,306.54,9,65,6.44,SD,1703253465
469,khandyga,62.6667,135.6,230.61,99,99,1.31,RU,1703253466
470,bogorodskoye,56.55,37.8833,273.29,87,100,7.05,RU,1703253466
471,santa cruz,-17.8,-63.1667,303.18,66,75,2.06,BO,1703253466
472,miyaly,48.8844,53.7836,274.07,82,100,6.9,KZ,1703253466
473,namikupa,-10.8333,39.6,304.23,56,96,3.45,TZ,1703253466
474,baoqing,46.3317,132.2111,247.89,98,92,2.03,CN,1703253466
475,suntar,62.1444,117.6319,253.84,96,95,2.38,RU,1703253467
476,haapavesi,64.1333,25.3667,268.44,92,98,0.89,FI,1703253467
477,pizarro,4.9533,-77.366,300.25,86,100,2.21,CO,1703253467
478,bikenibeu village,1.3673,173.1241,299.13,94,100,3.6,KI,1703253467
479,winnemucca,40.973,-117.7357,269.18,86,0,1.54,US,1703253467
480,novo aripuana,-5.1206,-60.3797,299.23,94,99,1.3,BR,1703253468
481,hawera,-39.5917,174.2833,293.28,78,100,1.84,NZ,1703253468
482,tofol,5.3248,163.0078,301.15,78,100,8.08,FM,1703253468
483,okhotsk,59.3833,143.3,244.61,87,52,4.56,RU,1703253468
484,mhamid,29.82,-5.72,292.11,13,0,2.03,MA,1703253468
485,bignona,12.8103,-16.2264,303.17,10,8,2.63,SN,1703253469
486,chino,34.0122,-117.6889,288.48,85,0,2.57,US,1703253442
487,east wenatchee bench,47.4257,-120.2812,276.75,94,100,0.0,US,1703253469
488,chimore,-16.9833,-65.1333,299.64,86,100,0.33,BO,1703253469
489,wuwei,37.9281,102.6414,267.41,68,100,1.74,CN,1703253469
490,nambucca heads,-30.65,153.0,292.15,84,93,3.15,AU,1703253469
491,vila franca do campo,37.7167,-25.4333,291.42,99,0,3.57,PT,1703253470
492,mudon,16.2578,97.7164,295.76,60,81,4.28,MM,1703253470
493,al ain city,24.1917,55.7606,296.94,33,0,2.57,AE,1703253424
494,chinchilla,-26.75,150.6333,294.27,91,65,0.45,AU,1703253470
495,port-gentil,-0.7193,8.7815,303.13,79,40,3.09,GA,1703253470
496,kishtwar,33.3167,75.7667,282.64,26,100,1.55,IN,1703253470
497,esperanza,19.5847,-70.9849,294.47,83,85,2.04,DO,1703253470
498,vorgashor,67.5833,63.95,259.9,97,97,2.99,RU,1703253471
499,banda aceh,5.5577,95.3222,299.67,83,100,4.8,ID,1703253471
500,el granada,37.5027,-122.4694,286.69,92,0,0.0,US,1703253471
501,tuy hoa,13.0833,109.3,295.08,94,100,10.44,VN,1703253471
502,visakhapatnam,17.69,83.2093,294.09,83,20,1.54,IN,1703253471
503,talnakh,69.4865,88.3972,265.49,94,100,6.06,RU,1703253471
504,columbia,34.0007,-81.0348,278.99,90,0,0.0,US,1703253472
505,pala,9.3642,14.9046,308.39,12,98,3.72,TD,1703253472
506,kassala,15.451,36.4,306.28,16,3,4.87,SD,1703253472
507,madimba,-10.4,40.3333,303.77,74,40,5.14,TZ,1703253472
508,northam,51.0333,-4.2167,283.52,82,100,11.45,GB,1703253472
509,arona,28.0996,-16.681,291.44,53,20,8.75,ES,1703253472
510,mushie,-3.0167,16.9,302.6,71,78,0.84,CD,1703253472
511,quibala,-10.7337,14.98,292.32,95,100,0.82,AO,1703253473
512,tanout,14.9709,8.8879,298.88,15,0,7.75,NE,1703253473
513,halabjah,35.1778,45.9861,283.91,71,100,2.12,IQ,1703253473
514,ko lanta,7.5336,99.0865,299.88,74,87,9.6,TH,1703253473
515,nha trang,12.25,109.1833,296.15,94,100,7.01,VN,1703253423
516,retreat,38.8245,-85.8533,277.87,70,100,2.18,US,1703253473
517,lubango,-14.9172,13.4925,294.37,68,98,1.79,AO,1703253474
518,ola,59.5833,151.2833,250.34,83,88,3.9,RU,1703253474
519,tyuratam,45.6507,63.3156,270.85,85,22,5.09,KZ,1703253474
520,willowmore,-33.2926,23.4895,311.51,12,16,12.29,ZA,1703253474
521,loen,7.7601,168.2307,300.89,78,100,8.73,MH,1703253474
522,maceio,-9.6658,-35.7353,302.84,70,75,4.63,BR,1703253474
523,jimena de la frontera,36.4352,-5.4539,290.96,40,0,1.01,ES,1703253474
524,oriximina,-1.7656,-55.8661,304.83,57,76,1.79,BR,1703253475
525,visby,57.6409,18.296,274.84,100,75,10.8,SE,1703253475
526,miles city,46.4083,-105.8406,272.69,86,0,3.09,US,1703253475
527,bridgewater,44.3835,-64.5155,267.1,69,6,9.77,CA,1703253475
528,la mira,18.035,-102.3266,296.66,83,86,1.76,MX,1703253475
529,shahba,32.8551,36.629,282.1,69,62,11.3,SY,1703253475
530,kavieng,-2.5744,150.7967,300.69,79,65,2.3,PG,1703253475
531,toamasina,-18.1667,49.3833,305.15,66,20,3.6,MG,1703253476
532,harper,4.375,-7.7169,303.92,40,91,3.05,LR,1703253476
533,conception bay south,47.4999,-52.9981,281.68,99,100,3.6,CA,1703253428
534,urrugne,43.3636,-1.6992,287.3,94,75,7.72,FR,1703253476
535,aden,12.7794,45.0367,299.24,74,0,5.63,YE,1703253390
536,grindsted,55.754,8.9123,276.96,75,0,9.26,DK,1703253476
537,nemuro,43.3236,145.575,270.04,65,74,6.71,JP,1703253477
538,the pas,53.8251,-101.2541,262.16,92,0,3.09,CA,1703253477
539,swan hill,-35.3378,143.5544,294.93,39,84,5.32,AU,1703253477
540,carbonear,47.7332,-53.2148,282.06,98,100,5.07,CA,1703253477
541,prairie du chien,43.0517,-91.1412,277.2,81,40,0.0,US,1703253478
542,newman,37.3138,-121.0208,284.28,94,14,1.8,US,1703253478
543,gorom-gorom,14.4439,-0.2361,303.35,10,0,3.91,BF,1703253478
544,belel,7.05,14.4333,302.96,16,92,3.74,CM,1703253478
545,puerto aysen,-45.4,-72.7,288.86,52,11,2.97,CL,1703253478
546,dunedin,-45.8742,170.5036,284.15,91,100,1.16,NZ,1703253478
547,burabay,53.0838,70.3138,272.93,92,97,3.89,KZ,1703253479
548,yanam,16.7333,82.2167,293.69,80,66,1.74,IN,1703253479
549,gembu,6.7,11.2667,302.84,22,99,1.53,NG,1703253479
550,rajaori,33.3833,74.3,287.09,28,100,0.79,IN,1703253479
551,dana point,33.467,-117.6981,289.35,88,98,2.68,US,1703253479
552,idil,37.3411,41.8895,279.64,95,100,2.49,TR,1703253480
553,ipatovo,45.7181,42.9036,280.32,67,100,3.59,RU,1703253480
554,fonte boa,-2.4959,-66.2662,303.02,61,90,1.15,BR,1703253480
555,yermentau,51.6214,73.1069,272.83,91,100,1.98,KZ,1703253480
556,chos malal,-37.3781,-70.2709,296.7,16,0,2.72,AR,1703253480
557,rio preto da eva,-2.6994,-59.6997,298.01,97,100,1.23,BR,1703253480
558,plymouth,41.8334,-70.8328,270.98,63,0,3.6,US,1703253481
559,linxia chengguanzhen,35.6003,103.2064,266.35,52,0,0.41,CN,1703253481
560,kittila,67.6647,24.8936,263.23,92,100,2.57,FI,1703253481
561,mountain home,43.133,-115.6912,271.86,97,100,1.54,US,1703253481
562,kolonia town,6.964,158.206,301.15,78,75,2.57,FM,1703253482
563,praia da vitoria,38.7333,-27.0667,291.35,63,40,3.49,PT,1703253482
564,lerwick,60.1545,-1.1494,275.15,60,100,13.36,GB,1703253482
565,harstad,68.799,16.5293,269.9,78,100,3.13,NO,1703253483
566,nantucket,41.2835,-70.0995,273.71,74,20,4.12,US,1703253483
567,nsanje,-16.92,35.262,311.34,27,70,1.42,MW,1703253483
568,ganye,8.4333,12.0667,308.25,14,95,2.27,NG,1703253359
569,richards bay,-28.783,32.0377,302.02,65,17,6.86,ZA,1703253484
570,selfoss,63.9331,-20.9971,263.73,55,55,3.71,IS,1703253484
571,al jawf,29.5,38.75,290.86,39,0,0.78,SA,1703253484
572,raychikhinsk,49.7838,129.4121,238.9,100,16,1.31,RU,1703253484
573,machilipatnam,16.1667,81.1333,296.48,74,70,3.01,IN,1703253485
574,benemerito de las americas,16.5167,-90.6439,292.02,86,51,0.23,MX,1703253485
575,nizao,18.25,-70.2,300.08,67,0,7.65,DO,1703253485
576,guardo,42.7897,-4.8482,284.62,55,16,0.62,ES,1703253486
577,pechora,65.1472,57.2244,263.51,98,100,1.5,RU,1703253486
578,balkashino,52.5167,68.7667,273.14,95,100,3.12,KZ,1703253486
579,camana,-16.6228,-72.7111,295.53,84,83,4.0,PE,1703253486
580,serdar,38.9764,56.2757,284.54,36,65,2.62,TM,1703253486
581,imbert,19.7537,-70.8291,294.25,90,100,1.76,DO,1703253487
582,severodvinsk,64.5635,39.8302,268.21,98,100,2.09,RU,1703253487
583,troitsk,54.0979,61.5773,271.19,94,19,5.64,RU,1703253487
